{"success":true,"responseTime":1438.0822,"data":{"next":"origin=coord:2.3390580739746:48.8494670266489&max_duration=36000&origin_mode=walking&walking_speed=1.38&vls_distance=4000&walking_distance=1000&wheelchair=False&destination=coord:2.3256299495697:48.870662689209&bike_speed=3.38&car_speed=13.38&vls_speed=3.38&max_transfers=10&forbidden_uris[]=commercial_mode:0x1&forbidden_uris[]=commercial_mode:0x0&forbidden_uris[]=commercial_mode:0x2&car_distance=10000&bike_distance=4000&destination_mode=walking&clockwise=true&datetime=20130805T172300","prev":"origin=coord:2.3390580739746:48.8494670266489&max_duration=36000&origin_mode=walking&walking_speed=1.38&vls_distance=4000&walking_distance=1000&wheelchair=False&destination=coord:2.3256299495697:48.870662689209&bike_speed=3.38&car_speed=13.38&vls_speed=3.38&max_transfers=10&forbidden_uris[]=commercial_mode:0x1&forbidden_uris[]=commercial_mode:0x0&forbidden_uris[]=commercial_mode:0x2&car_distance=10000&bike_distance=4000&destination_mode=walking&clockwise=false&datetime=20130805T174538","response_type":"ITINERARY_FOUND","journeys":[{"nb_transfers":1,"arrival_date_time":"20130805T174907","departure_date_time":"20130805T172200","requested_date_time":"20130805T172000","duration":1380,"sections":[{"origin":{"stop_point":{"administrative_regions":[{"level":10,"zip_code":"75006","uri":"admin:2188184","name":"Quartier de l'Odéon"},{"level":9,"zip_code":"75006","uri":"admin:9527","coord":{"lat":48.8504333,"lon":2.3329506999999947},"name":"6e Arrondissement"},{"level":8,"zip_code":"75000","uri":"admin:7444","coord":{"lat":48.856505599999757,"lon":2.3521334000000018},"name":"Paris"}],"stop_area":{"name":"Odéon","coord":{"lat":48.852315,"lon":2.338862},"uri":"stop_area:RTP1653"},"name":"THEATRE DE L'ODEON","coord":{"lat":48.849691,"lon":2.339107},"uri":"stop_point:RTP3442467"},"name":"THEATRE DE L'ODEON","uri":"stop_point:RTP3442467"},"destination":{"stop_point":{"administrative_regions":[{"level":10,"zip_code":"75006","uri":"admin:2188184","name":"Quartier de l'Odéon"},{"level":9,"zip_code":"75006","uri":"admin:9527","coord":{"lat":48.8504333,"lon":2.3329506999999947},"name":"6e Arrondissement"},{"level":8,"zip_code":"75000","uri":"admin:7444","coord":{"lat":48.856505599999757,"lon":2.3521334000000018},"name":"Paris"},{"level":10,"zip_code":"75006","uri":"admin:2188184","name":"Quartier de l'Odéon"},{"level":9,"zip_code":"75006","uri":"admin:9527","coord":{"lat":48.8504333,"lon":2.3329506999999947},"name":"6e Arrondissement"},{"level":8,"zip_code":"75000","uri":"admin:7444","coord":{"lat":48.856505599999757,"lon":2.3521334000000018},"name":"Paris"},{"level":10,"zip_code":"75006","uri":"admin:2188545","name":"Quartier de la Monnaie"},{"level":9,"zip_code":"75006","uri":"admin:9527","coord":{"lat":48.8504333,"lon":2.3329506999999947},"name":"6e Arrondissement"},{"level":8,"zip_code":"75000","uri":"admin:7444","coord":{"lat":48.856505599999757,"lon":2.3521334000000018},"name":"Paris"},{"level":10,"zip_code":"75006","uri":"admin:2188545","name":"Quartier de la Monnaie"},{"level":9,"zip_code":"75006","uri":"admin:9527","coord":{"lat":48.8504333,"lon":2.3329506999999947},"name":"6e Arrondissement"},{"level":8,"zip_code":"75000","uri":"admin:7444","coord":{"lat":48.856505599999757,"lon":2.3521334000000018},"name":"Paris"},{"level":10,"zip_code":"75001","uri":"admin:2172740","name":"Quartier Saint-Germain-l'Auxerrois"},{"level":9,"zip_code":"75001","uri":"admin:20727","coord":{"lat":48.864614399999958,"lon":2.3343959999999986},"name":"1er Arrondissement"},{"level":8,"zip_code":"75000","uri":"admin:7444","coord":{"lat":48.856505599999757,"lon":2.3521334000000018},"name":"Paris"}],"stop_area":{"name":"Pont Neuf","coord":{"lat":48.858534,"lon":2.342117},"uri":"stop_area:RTP1806"},"name":"PONT NEUF - QUAI DU LOUVRE","coord":{"lat":48.858148,"lon":2.342798},"uri":"stop_point:RTP3442418"},"name":"PONT NEUF - QUAI DU LOUVRE","uri":"stop_point:RTP3442418"},"duration":360,"begin_date_time":"20130805T172200","end_date_time":"20130805T172800","pt_display_informations":{"direction":"PONT NEUF - QUAI DU LOUVRE","code":"58","network":"RATP","color":"FFFFFF","physical_mode":"Bus","headsign":"Châtelet","commercial_mode":"Bus"},"type":"PUBLIC_TRANSPORT","uris":{"network":"network:RTP","vehicle_journey":"vehicle_journey:RTP8613048370819300417755","physical_mode":"physical_mode:0x3","commercial_mode":"commercial_mode:0x3","line":"line:RTP959324","route":"route:line:RTP959324-3"},"stop_date_times":[{"stop_point":{"name":"THEATRE DE L'ODEON","coord":{"lat":48.849691,"lon":2.339107},"uri":"stop_point:RTP3442467"},"arrival_date_time":"20130805T172200","departure_date_time":"20130805T172200"},{"stop_point":{"name":"SAINT-GERMAIN - ODEON","coord":{"lat":48.851533,"lon":2.338739},"uri":"stop_point:RTP3442423"},"arrival_date_time":"20130805T172300","departure_date_time":"20130805T172300"},{"stop_point":{"name":"SAINT-ANDRE DES ARTS","coord":{"lat":48.853744,"lon":2.338644},"uri":"stop_point:RTP3442468"},"arrival_date_time":"20130805T172500","departure_date_time":"20130805T172500"},{"stop_point":{"name":"PONT NEUF - QUAI DES GRANDS AUGUSTINS","coord":{"lat":48.855595,"lon":2.340142},"uri":"stop_point:RTP3442420"},"arrival_date_time":"20130805T172700","departure_date_time":"20130805T172700"},{"stop_point":{"name":"PONT NEUF - QUAI DU LOUVRE","coord":{"lat":48.858148,"lon":2.342798},"uri":"stop_point:RTP3442418"},"arrival_date_time":"20130805T172800","departure_date_time":"20130805T172800"}]},{"origin":{"stop_point":{"administrative_regions":[{"level":10,"zip_code":"75001","uri":"admin:2172740","name":"Quartier Saint-Germain-l'Auxerrois"},{"level":9,"zip_code":"75001","uri":"admin:20727","coord":{"lat":48.864614399999958,"lon":2.3343959999999986},"name":"1er Arrondissement"},{"level":8,"zip_code":"75000","uri":"admin:7444","coord":{"lat":48.856505599999757,"lon":2.3521334000000018},"name":"Paris"}],"stop_area":{"name":"Pont Neuf","coord":{"lat":48.858534,"lon":2.342117},"uri":"stop_area:RTP1806"},"name":"PONT NEUF - QUAI DU LOUVRE","coord":{"lat":48.858148,"lon":2.342798},"uri":"stop_point:RTP3442418"},"name":"PONT NEUF - QUAI DU LOUVRE","uri":"stop_point:RTP3442418"},"destination":{"stop_point":{"administrative_regions":[{"level":10,"zip_code":"75001","uri":"admin:2172737","name":"Quartier Les Halles"},{"level":9,"zip_code":"75001","uri":"admin:20727","coord":{"lat":48.864614399999958,"lon":2.3343959999999986},"name":"1er Arrondissement"},{"level":8,"zip_code":"75000","uri":"admin:7444","coord":{"lat":48.856505599999757,"lon":2.3521334000000018},"name":"Paris"}],"stop_area":{"name":"Pont Neuf","coord":{"lat":48.858534,"lon":2.342117},"uri":"stop_area:RTP1806"},"name":"RIVOLI - PONT NEUF","coord":{"lat":48.859891,"lon":2.344106},"uri":"stop_point:RTP3764845"},"name":"RIVOLI - PONT NEUF","uri":"stop_point:RTP3764845"},"begin_date_time":"20130805T172800","end_date_time":"20130805T173000","duration":120,"transfer_type":"WALKING","type":"TRANSFER"},{"origin":{"stop_point":{"administrative_regions":[{"level":10,"zip_code":"75001","uri":"admin:2172740","name":"Quartier Saint-Germain-l'Auxerrois"},{"level":9,"zip_code":"75001","uri":"admin:20727","coord":{"lat":48.864614399999958,"lon":2.3343959999999986},"name":"1er Arrondissement"},{"level":8,"zip_code":"75000","uri":"admin:7444","coord":{"lat":48.856505599999757,"lon":2.3521334000000018},"name":"Paris"}],"stop_area":{"name":"Pont Neuf","coord":{"lat":48.858534,"lon":2.342117},"uri":"stop_area:RTP1806"},"name":"PONT NEUF - QUAI DU LOUVRE","coord":{"lat":48.858148,"lon":2.342798},"uri":"stop_point:RTP3442418"},"name":"PONT NEUF - QUAI DU LOUVRE","uri":"stop_point:RTP3442418"},"destination":{"stop_point":{"administrative_regions":[{"level":10,"zip_code":"75001","uri":"admin:2172740","name":"Quartier Saint-Germain-l'Auxerrois"},{"level":9,"zip_code":"75001","uri":"admin:20727","coord":{"lat":48.864614399999958,"lon":2.3343959999999986},"name":"1er Arrondissement"},{"level":8,"zip_code":"75000","uri":"admin:7444","coord":{"lat":48.856505599999757,"lon":2.3521334000000018},"name":"Paris"}],"stop_area":{"name":"Pont Neuf","coord":{"lat":48.858534,"lon":2.342117},"uri":"stop_area:RTP1806"},"name":"PONT NEUF - QUAI DU LOUVRE","coord":{"lat":48.858148,"lon":2.342798},"uri":"stop_point:RTP3442418"},"name":"PONT NEUF - QUAI DU LOUVRE","uri":"stop_point:RTP3442418"},"begin_date_time":"20130805T173000","end_date_time":"20130805T173000","duration":0,"type":"WAITING"},{"origin":{"stop_point":{"administrative_regions":[{"level":10,"zip_code":"75001","uri":"admin:2172737","name":"Quartier Les Halles"},{"level":9,"zip_code":"75001","uri":"admin:20727","coord":{"lat":48.864614399999958,"lon":2.3343959999999986},"name":"1er Arrondissement"},{"level":8,"zip_code":"75000","uri":"admin:7444","coord":{"lat":48.856505599999757,"lon":2.3521334000000018},"name":"Paris"}],"stop_area":{"name":"Pont Neuf","coord":{"lat":48.858534,"lon":2.342117},"uri":"stop_area:RTP1806"},"name":"RIVOLI - PONT NEUF","coord":{"lat":48.859891,"lon":2.344106},"uri":"stop_point:RTP3764845"},"name":"RIVOLI - PONT NEUF","uri":"stop_point:RTP3764845"},"destination":{"stop_point":{"administrative_regions":[{"level":10,"zip_code":"75001","uri":"admin:2172737","name":"Quartier Les Halles"},{"level":9,"zip_code":"75001","uri":"admin:20727","coord":{"lat":48.864614399999958,"lon":2.3343959999999986},"name":"1er Arrondissement"},{"level":8,"zip_code":"75000","uri":"admin:7444","coord":{"lat":48.856505599999757,"lon":2.3521334000000018},"name":"Paris"},{"level":10,"zip_code":"75001","uri":"admin:2172737","name":"Quartier Les Halles"},{"level":9,"zip_code":"75001","uri":"admin:20727","coord":{"lat":48.864614399999958,"lon":2.3343959999999986},"name":"1er Arrondissement"},{"level":8,"zip_code":"75000","uri":"admin:7444","coord":{"lat":48.856505599999757,"lon":2.3521334000000018},"name":"Paris"},{"level":9,"zip_code":"75001","uri":"admin:20727","coord":{"lat":48.864614399999958,"lon":2.3343959999999986},"name":"1er Arrondissement"},{"level":8,"zip_code":"75000","uri":"admin:7444","coord":{"lat":48.856505599999757,"lon":2.3521334000000018},"name":"Paris"},{"level":10,"zip_code":"75001","uri":"admin:2172739","name":"Quartier du Palais Royal"},{"level":9,"zip_code":"75001","uri":"admin:20727","coord":{"lat":48.864614399999958,"lon":2.3343959999999986},"name":"1er Arrondissement"},{"level":8,"zip_code":"75000","uri":"admin:7444","coord":{"lat":48.856505599999757,"lon":2.3521334000000018},"name":"Paris"},{"level":10,"zip_code":"75001","uri":"admin:2172739","name":"Quartier du Palais Royal"},{"level":10,"zip_code":"75002","uri":"admin:2189366","name":"Quartier Gaillon"},{"level":9,"zip_code":"75002","uri":"admin:9542","coord":{"lat":48.868743000000066,"lon":2.34168800000001},"name":"2e Arrondissement"},{"level":8,"zip_code":"75000","uri":"admin:7444","coord":{"lat":48.856505599999757,"lon":2.3521334000000018},"name":"Paris"},{"level":10,"zip_code":"75002","uri":"admin:2189366","name":"Quartier Gaillon"},{"level":9,"zip_code":"75002","uri":"admin:9542","coord":{"lat":48.868743000000066,"lon":2.34168800000001},"name":"2e Arrondissement"},{"level":8,"zip_code":"75000","uri":"admin:7444","coord":{"lat":48.856505599999757,"lon":2.3521334000000018},"name":"Paris"},{"level":10,"zip_code":"75009","uri":"admin:2189601","name":"Quartier de la Chaussée-d'Antin"},{"level":8,"zip_code":"75000","uri":"admin:7444","coord":{"lat":48.856505599999757,"lon":2.3521334000000018},"name":"Paris"},{"level":9,"zip_code":"75009","uri":"admin:9537","coord":{"lat":48.876019000000063,"lon":2.33996200000001},"name":"9e Arrondissement"},{"level":10,"zip_code":"75009","uri":"admin:2189601","name":"Quartier de la Chaussée-d'Antin"},{"level":8,"zip_code":"75000","uri":"admin:7444","coord":{"lat":48.856505599999757,"lon":2.3521334000000018},"name":"Paris"},{"level":9,"zip_code":"75009","uri":"admin:9537","coord":{"lat":48.876019000000063,"lon":2.33996200000001},"name":"9e Arrondissement"},{"level":10,"zip_code":"75009","uri":"admin:2189601","name":"Quartier de la Chaussée-d'Antin"},{"level":8,"zip_code":"75000","uri":"admin:7444","coord":{"lat":48.856505599999757,"lon":2.3521334000000018},"name":"Paris"},{"level":9,"zip_code":"75009","uri":"admin:9537","coord":{"lat":48.876019000000063,"lon":2.33996200000001},"name":"9e Arrondissement"}],"stop_area":{"name":"Saint-Lazare","coord":{"lat":48.875538,"lon":2.325196},"uri":"stop_area:RTP1166840"},"name":"HAVRE - HAUSSMANN","coord":{"lat":48.873534,"lon":2.327568},"uri":"stop_point:RTP3764797"},"name":"HAVRE - HAUSSMANN","uri":"stop_point:RTP3764797"},"duration":780,"begin_date_time":"20130805T173000","end_date_time":"20130805T174300","pt_display_informations":{"direction":"HAVRE - HAUSSMANN","code":"21","network":"RATP","color":"FFFFFF","physical_mode":"Bus","headsign":"Saint-Lazare","commercial_mode":"Bus"},"type":"PUBLIC_TRANSPORT","uris":{"network":"network:RTP","vehicle_journey":"vehicle_journey:RTP11513889720883328240312","physical_mode":"physical_mode:0x3","commercial_mode":"commercial_mode:0x3","line":"line:RTP959240","route":"route:line:RTP959240-3"},"stop_date_times":[{"stop_point":{"name":"RIVOLI - PONT NEUF","coord":{"lat":48.859891,"lon":2.344106},"uri":"stop_point:RTP3764845"},"arrival_date_time":"20130805T173000","departure_date_time":"20130805T173000"},{"stop_point":{"name":"LOUVRE - RIVOLI","coord":{"lat":48.8607,"lon":2.341586},"uri":"stop_point:RTP3764809"},"arrival_date_time":"20130805T173200","departure_date_time":"20130805T173200"},{"stop_point":{"name":"PALAIS ROYAL - MUSEE DU LOUVRE","coord":{"lat":48.862579,"lon":2.336029},"uri":"stop_point:RTP3764846"},"arrival_date_time":"20130805T173400","departure_date_time":"20130805T173400"},{"stop_point":{"name":"PYRAMIDES","coord":{"lat":48.866281,"lon":2.33423},"uri":"stop_point:RTP3764805"},"arrival_date_time":"20130805T173700","departure_date_time":"20130805T173700"},{"stop_point":{"name":"PETITS CHAMPS - DANIELLE CASANOVA","coord":{"lat":48.867854,"lon":2.333604},"uri":"stop_point:RTP3764847"},"arrival_date_time":"20130805T173800","departure_date_time":"20130805T173800"},{"stop_point":{"name":"OPERA - 4 SEPTEMBRE","coord":{"lat":48.869768,"lon":2.332732},"uri":"stop_point:RTP3764803"},"arrival_date_time":"20130805T174000","departure_date_time":"20130805T174000"},{"stop_point":{"name":"OPERA","coord":{"lat":48.871242,"lon":2.331669},"uri":"stop_point:RTP3764801"},"arrival_date_time":"20130805T174100","departure_date_time":"20130805T174100"},{"stop_point":{"name":"AUBER","coord":{"lat":48.872177,"lon":2.329979},"uri":"stop_point:RTP3764799"},"arrival_date_time":"20130805T174200","departure_date_time":"20130805T174200"},{"stop_point":{"name":"HAVRE - HAUSSMANN","coord":{"lat":48.873534,"lon":2.327568},"uri":"stop_point:RTP3764797"},"arrival_date_time":"20130805T174300","departure_date_time":"20130805T174300"}]},{"origin":{"stop_point":{"administrative_regions":[{"level":10,"zip_code":"75009","uri":"admin:2189601","name":"Quartier de la Chaussée-d'Antin"},{"level":8,"zip_code":"75000","uri":"admin:7444","coord":{"lat":48.856505599999757,"lon":2.3521334000000018},"name":"Paris"},{"level":9,"zip_code":"75009","uri":"admin:9537","coord":{"lat":48.876019000000063,"lon":2.33996200000001},"name":"9e Arrondissement"}],"stop_area":{"name":"Saint-Lazare","coord":{"lat":48.875538,"lon":2.325196},"uri":"stop_area:RTP1166840"},"name":"HAVRE - HAUSSMANN","coord":{"lat":48.873534,"lon":2.327568},"uri":"stop_point:RTP3764797"},"name":"HAVRE - HAUSSMANN","uri":"stop_point:RTP3764797"},"destination":{"stop_point":{"administrative_regions":[{"level":10,"zip_code":"75008","uri":"admin:2188826","name":"Quartier de la Madeleine"},{"level":8,"zip_code":"75000","uri":"admin:7444","coord":{"lat":48.856505599999757,"lon":2.3521334000000018},"name":"Paris"},{"level":9,"zip_code":"75008","uri":"admin:20872","coord":{"lat":48.877315800000225,"lon":2.3172611000000072},"name":"8e Arrondissement"}],"stop_area":{"name":"Saint-Lazare","coord":{"lat":48.875538,"lon":2.325196},"uri":"stop_area:RTP1166840"},"name":"HAVRE - HAUSSMANN","coord":{"lat":48.873309,"lon":2.326628},"uri":"stop_point:RTP4009665"},"name":"HAVRE - HAUSSMANN","uri":"stop_point:RTP4009665"},"begin_date_time":"20130805T174300","end_date_time":"20130805T174500","duration":120,"transfer_type":"WALKING","type":"TRANSFER"},{"origin":{"address":{"house_number":30,"administrative_regions":[{"level":10,"zip_code":"75008","uri":"admin:2188826","name":"Quartier de la Madeleine"},{"level":9,"zip_code":"75008","uri":"admin:20872","coord":{"lat":48.877315800000225,"lon":2.3172611000000072},"name":"8e Arrondissement"},{"level":8,"zip_code":"75000","uri":"admin:7444","coord":{"lat":48.856505599999757,"lon":2.3521334000000018},"name":"Paris"}],"uri":"address:66771099","coord":{"lat":48.873248500000237,"lon":2.3268161999999974},"name":"Rue Tronchet"},"name":"30, Rue Tronchet, Quartier de la Madeleine, 8e Arrondissement, Paris","uri":"address:66771099"},"street_network":{"length":341.45388793945312,"coordinates":[{"lat":48.873248500000237,"lon":2.3268161999999974},{"lat":48.873141200000028,"lon":2.3267536000000009},{"lat":48.872792399999952,"lon":2.3264903999999951},{"lat":48.8720709,"lon":2.3259555000000023},{"lat":48.871591799999962,"lon":2.3256110999999957},{"lat":48.870999700000027,"lon":2.325177399999999},{"lat":48.870773300000025,"lon":2.3252011999999995},{"lat":48.870699099999975,"lon":2.3254415999999978},{"lat":48.870664099999793,"lon":2.3255547000000094},{"lat":48.870650908914108,"lon":2.3256278244969018}],"mode":"Walking","path_items":[{"length":277.42352294921875,"name":"Rue Tronchet"},{"length":25.24176025390625,"name":"Rue Tronchet"},{"length":28.572257995605469,"name":"Place de la Madeleine"}]},"destination":{"address":{"house_number":30,"administrative_regions":[{"level":10,"zip_code":"75008","uri":"admin:2188826","name":"Quartier de la Madeleine"},{"level":9,"zip_code":"75008","uri":"admin:20872","coord":{"lat":48.877315800000225,"lon":2.3172611000000072},"name":"8e Arrondissement"},{"level":8,"zip_code":"75000","uri":"admin:7444","coord":{"lat":48.856505599999757,"lon":2.3521334000000018},"name":"Paris"}],"uri":"address:69315573","coord":{"lat":48.870650908914108,"lon":2.3256278244969018},"name":"Place de la Madeleine"},"name":"30, Place de la Madeleine, Quartier de la Madeleine, 8e Arrondissement, Paris","uri":"address:69315573"},"type":"STREET_NETWORK"}]},{"nb_transfers":1,"arrival_date_time":"20130805T174907","departure_date_time":"20130805T172200","requested_date_time":"20130805T172000","duration":1380,"sections":[{"origin":{"stop_point":{"administrative_regions":[{"level":10,"zip_code":"75006","uri":"admin:2188184","name":"Quartier de l'Odéon"},{"level":9,"zip_code":"75006","uri":"admin:9527","coord":{"lat":48.8504333,"lon":2.3329506999999947},"name":"6e Arrondissement"},{"level":8,"zip_code":"75000","uri":"admin:7444","coord":{"lat":48.856505599999757,"lon":2.3521334000000018},"name":"Paris"}],"stop_area":{"name":"Odéon","coord":{"lat":48.852315,"lon":2.338862},"uri":"stop_area:RTP1653"},"name":"THEATRE DE L'ODEON","coord":{"lat":48.849691,"lon":2.339107},"uri":"stop_point:RTP3442467"},"name":"THEATRE DE L'ODEON","uri":"stop_point:RTP3442467"},"destination":{"stop_point":{"administrative_regions":[{"level":10,"zip_code":"75006","uri":"admin:2188184","name":"Quartier de l'Odéon"},{"level":9,"zip_code":"75006","uri":"admin:9527","coord":{"lat":48.8504333,"lon":2.3329506999999947},"name":"6e Arrondissement"},{"level":8,"zip_code":"75000","uri":"admin:7444","coord":{"lat":48.856505599999757,"lon":2.3521334000000018},"name":"Paris"},{"level":10,"zip_code":"75006","uri":"admin:2188184","name":"Quartier de l'Odéon"},{"level":9,"zip_code":"75006","uri":"admin:9527","coord":{"lat":48.8504333,"lon":2.3329506999999947},"name":"6e Arrondissement"},{"level":8,"zip_code":"75000","uri":"admin:7444","coord":{"lat":48.856505599999757,"lon":2.3521334000000018},"name":"Paris"},{"level":10,"zip_code":"75006","uri":"admin:2188545","name":"Quartier de la Monnaie"},{"level":9,"zip_code":"75006","uri":"admin:9527","coord":{"lat":48.8504333,"lon":2.3329506999999947},"name":"6e Arrondissement"},{"level":8,"zip_code":"75000","uri":"admin:7444","coord":{"lat":48.856505599999757,"lon":2.3521334000000018},"name":"Paris"},{"level":10,"zip_code":"75006","uri":"admin:2188545","name":"Quartier de la Monnaie"},{"level":9,"zip_code":"75006","uri":"admin:9527","coord":{"lat":48.8504333,"lon":2.3329506999999947},"name":"6e Arrondissement"},{"level":8,"zip_code":"75000","uri":"admin:7444","coord":{"lat":48.856505599999757,"lon":2.3521334000000018},"name":"Paris"},{"level":10,"zip_code":"75001","uri":"admin:2172740","name":"Quartier Saint-Germain-l'Auxerrois"},{"level":9,"zip_code":"75001","uri":"admin:20727","coord":{"lat":48.864614399999958,"lon":2.3343959999999986},"name":"1er Arrondissement"},{"level":8,"zip_code":"75000","uri":"admin:7444","coord":{"lat":48.856505599999757,"lon":2.3521334000000018},"name":"Paris"}],"stop_area":{"name":"Pont Neuf","coord":{"lat":48.858534,"lon":2.342117},"uri":"stop_area:RTP1806"},"name":"PONT NEUF - QUAI DU LOUVRE","coord":{"lat":48.858148,"lon":2.342798},"uri":"stop_point:RTP3442418"},"name":"PONT NEUF - QUAI DU LOUVRE","uri":"stop_point:RTP3442418"},"duration":360,"begin_date_time":"20130805T172200","end_date_time":"20130805T172800","pt_display_informations":{"direction":"PONT NEUF - QUAI DU LOUVRE","code":"58","network":"RATP","color":"FFFFFF","physical_mode":"Bus","headsign":"Châtelet","commercial_mode":"Bus"},"type":"PUBLIC_TRANSPORT","uris":{"network":"network:RTP","vehicle_journey":"vehicle_journey:RTP8613048370819300417755","physical_mode":"physical_mode:0x3","commercial_mode":"commercial_mode:0x3","line":"line:RTP959324","route":"route:line:RTP959324-3"},"stop_date_times":[{"stop_point":{"name":"THEATRE DE L'ODEON","coord":{"lat":48.849691,"lon":2.339107},"uri":"stop_point:RTP3442467"},"arrival_date_time":"20130805T172200","departure_date_time":"20130805T172200"},{"stop_point":{"name":"SAINT-GERMAIN - ODEON","coord":{"lat":48.851533,"lon":2.338739},"uri":"stop_point:RTP3442423"},"arrival_date_time":"20130805T172300","departure_date_time":"20130805T172300"},{"stop_point":{"name":"SAINT-ANDRE DES ARTS","coord":{"lat":48.853744,"lon":2.338644},"uri":"stop_point:RTP3442468"},"arrival_date_time":"20130805T172500","departure_date_time":"20130805T172500"},{"stop_point":{"name":"PONT NEUF - QUAI DES GRANDS AUGUSTINS","coord":{"lat":48.855595,"lon":2.340142},"uri":"stop_point:RTP3442420"},"arrival_date_time":"20130805T172700","departure_date_time":"20130805T172700"},{"stop_point":{"name":"PONT NEUF - QUAI DU LOUVRE","coord":{"lat":48.858148,"lon":2.342798},"uri":"stop_point:RTP3442418"},"arrival_date_time":"20130805T172800","departure_date_time":"20130805T172800"}]},{"origin":{"stop_point":{"administrative_regions":[{"level":10,"zip_code":"75001","uri":"admin:2172740","name":"Quartier Saint-Germain-l'Auxerrois"},{"level":9,"zip_code":"75001","uri":"admin:20727","coord":{"lat":48.864614399999958,"lon":2.3343959999999986},"name":"1er Arrondissement"},{"level":8,"zip_code":"75000","uri":"admin:7444","coord":{"lat":48.856505599999757,"lon":2.3521334000000018},"name":"Paris"}],"stop_area":{"name":"Pont Neuf","coord":{"lat":48.858534,"lon":2.342117},"uri":"stop_area:RTP1806"},"name":"PONT NEUF - QUAI DU LOUVRE","coord":{"lat":48.858148,"lon":2.342798},"uri":"stop_point:RTP3442418"},"name":"PONT NEUF - QUAI DU LOUVRE","uri":"stop_point:RTP3442418"},"destination":{"stop_point":{"administrative_regions":[{"level":10,"zip_code":"75001","uri":"admin:2172737","name":"Quartier Les Halles"},{"level":9,"zip_code":"75001","uri":"admin:20727","coord":{"lat":48.864614399999958,"lon":2.3343959999999986},"name":"1er Arrondissement"},{"level":8,"zip_code":"75000","uri":"admin:7444","coord":{"lat":48.856505599999757,"lon":2.3521334000000018},"name":"Paris"}],"stop_area":{"name":"Pont Neuf","coord":{"lat":48.858534,"lon":2.342117},"uri":"stop_area:RTP1806"},"name":"RIVOLI - PONT NEUF","coord":{"lat":48.859891,"lon":2.344106},"uri":"stop_point:RTP3764845"},"name":"RIVOLI - PONT NEUF","uri":"stop_point:RTP3764845"},"begin_date_time":"20130805T172800","end_date_time":"20130805T173000","duration":120,"transfer_type":"WALKING","type":"TRANSFER"},{"origin":{"stop_point":{"administrative_regions":[{"level":10,"zip_code":"75001","uri":"admin:2172740","name":"Quartier Saint-Germain-l'Auxerrois"},{"level":9,"zip_code":"75001","uri":"admin:20727","coord":{"lat":48.864614399999958,"lon":2.3343959999999986},"name":"1er Arrondissement"},{"level":8,"zip_code":"75000","uri":"admin:7444","coord":{"lat":48.856505599999757,"lon":2.3521334000000018},"name":"Paris"}],"stop_area":{"name":"Pont Neuf","coord":{"lat":48.858534,"lon":2.342117},"uri":"stop_area:RTP1806"},"name":"PONT NEUF - QUAI DU LOUVRE","coord":{"lat":48.858148,"lon":2.342798},"uri":"stop_point:RTP3442418"},"name":"PONT NEUF - QUAI DU LOUVRE","uri":"stop_point:RTP3442418"},"destination":{"stop_point":{"administrative_regions":[{"level":10,"zip_code":"75001","uri":"admin:2172740","name":"Quartier Saint-Germain-l'Auxerrois"},{"level":9,"zip_code":"75001","uri":"admin:20727","coord":{"lat":48.864614399999958,"lon":2.3343959999999986},"name":"1er Arrondissement"},{"level":8,"zip_code":"75000","uri":"admin:7444","coord":{"lat":48.856505599999757,"lon":2.3521334000000018},"name":"Paris"}],"stop_area":{"name":"Pont Neuf","coord":{"lat":48.858534,"lon":2.342117},"uri":"stop_area:RTP1806"},"name":"PONT NEUF - QUAI DU LOUVRE","coord":{"lat":48.858148,"lon":2.342798},"uri":"stop_point:RTP3442418"},"name":"PONT NEUF - QUAI DU LOUVRE","uri":"stop_point:RTP3442418"},"begin_date_time":"20130805T173000","end_date_time":"20130805T173000","duration":0,"type":"WAITING"},{"origin":{"stop_point":{"administrative_regions":[{"level":10,"zip_code":"75001","uri":"admin:2172737","name":"Quartier Les Halles"},{"level":9,"zip_code":"75001","uri":"admin:20727","coord":{"lat":48.864614399999958,"lon":2.3343959999999986},"name":"1er Arrondissement"},{"level":8,"zip_code":"75000","uri":"admin:7444","coord":{"lat":48.856505599999757,"lon":2.3521334000000018},"name":"Paris"}],"stop_area":{"name":"Pont Neuf","coord":{"lat":48.858534,"lon":2.342117},"uri":"stop_area:RTP1806"},"name":"RIVOLI - PONT NEUF","coord":{"lat":48.859891,"lon":2.344106},"uri":"stop_point:RTP3764845"},"name":"RIVOLI - PONT NEUF","uri":"stop_point:RTP3764845"},"destination":{"stop_point":{"administrative_regions":[{"level":10,"zip_code":"75001","uri":"admin:2172737","name":"Quartier Les Halles"},{"level":9,"zip_code":"75001","uri":"admin:20727","coord":{"lat":48.864614399999958,"lon":2.3343959999999986},"name":"1er Arrondissement"},{"level":8,"zip_code":"75000","uri":"admin:7444","coord":{"lat":48.856505599999757,"lon":2.3521334000000018},"name":"Paris"},{"level":10,"zip_code":"75001","uri":"admin:2172737","name":"Quartier Les Halles"},{"level":9,"zip_code":"75001","uri":"admin:20727","coord":{"lat":48.864614399999958,"lon":2.3343959999999986},"name":"1er Arrondissement"},{"level":8,"zip_code":"75000","uri":"admin:7444","coord":{"lat":48.856505599999757,"lon":2.3521334000000018},"name":"Paris"},{"level":9,"zip_code":"75001","uri":"admin:20727","coord":{"lat":48.864614399999958,"lon":2.3343959999999986},"name":"1er Arrondissement"},{"level":8,"zip_code":"75000","uri":"admin:7444","coord":{"lat":48.856505599999757,"lon":2.3521334000000018},"name":"Paris"},{"level":10,"zip_code":"75001","uri":"admin:2172739","name":"Quartier du Palais Royal"},{"level":9,"zip_code":"75001","uri":"admin:20727","coord":{"lat":48.864614399999958,"lon":2.3343959999999986},"name":"1er Arrondissement"},{"level":8,"zip_code":"75000","uri":"admin:7444","coord":{"lat":48.856505599999757,"lon":2.3521334000000018},"name":"Paris"},{"level":10,"zip_code":"75001","uri":"admin:2172739","name":"Quartier du Palais Royal"},{"level":10,"zip_code":"75002","uri":"admin:2189366","name":"Quartier Gaillon"},{"level":9,"zip_code":"75002","uri":"admin:9542","coord":{"lat":48.868743000000066,"lon":2.34168800000001},"name":"2e Arrondissement"},{"level":8,"zip_code":"75000","uri":"admin:7444","coord":{"lat":48.856505599999757,"lon":2.3521334000000018},"name":"Paris"},{"level":10,"zip_code":"75002","uri":"admin:2189366","name":"Quartier Gaillon"},{"level":9,"zip_code":"75002","uri":"admin:9542","coord":{"lat":48.868743000000066,"lon":2.34168800000001},"name":"2e Arrondissement"},{"level":8,"zip_code":"75000","uri":"admin:7444","coord":{"lat":48.856505599999757,"lon":2.3521334000000018},"name":"Paris"},{"level":10,"zip_code":"75009","uri":"admin:2189601","name":"Quartier de la Chaussée-d'Antin"},{"level":8,"zip_code":"75000","uri":"admin:7444","coord":{"lat":48.856505599999757,"lon":2.3521334000000018},"name":"Paris"},{"level":9,"zip_code":"75009","uri":"admin:9537","coord":{"lat":48.876019000000063,"lon":2.33996200000001},"name":"9e Arrondissement"},{"level":10,"zip_code":"75009","uri":"admin:2189601","name":"Quartier de la Chaussée-d'Antin"},{"level":8,"zip_code":"75000","uri":"admin:7444","coord":{"lat":48.856505599999757,"lon":2.3521334000000018},"name":"Paris"},{"level":9,"zip_code":"75009","uri":"admin:9537","coord":{"lat":48.876019000000063,"lon":2.33996200000001},"name":"9e Arrondissement"},{"level":10,"zip_code":"75009","uri":"admin:2189601","name":"Quartier de la Chaussée-d'Antin"},{"level":8,"zip_code":"75000","uri":"admin:7444","coord":{"lat":48.856505599999757,"lon":2.3521334000000018},"name":"Paris"},{"level":9,"zip_code":"75009","uri":"admin:9537","coord":{"lat":48.876019000000063,"lon":2.33996200000001},"name":"9e Arrondissement"}],"stop_area":{"name":"Saint-Lazare","coord":{"lat":48.875538,"lon":2.325196},"uri":"stop_area:RTP1166840"},"name":"HAVRE - HAUSSMANN","coord":{"lat":48.873534,"lon":2.327568},"uri":"stop_point:RTP3764797"},"name":"HAVRE - HAUSSMANN","uri":"stop_point:RTP3764797"},"duration":780,"begin_date_time":"20130805T173000","end_date_time":"20130805T174300","pt_display_informations":{"direction":"HAVRE - HAUSSMANN","code":"21","network":"RATP","color":"FFFFFF","physical_mode":"Bus","headsign":"Saint-Lazare","commercial_mode":"Bus"},"type":"PUBLIC_TRANSPORT","uris":{"network":"network:RTP","vehicle_journey":"vehicle_journey:RTP11513889720883328240312","physical_mode":"physical_mode:0x3","commercial_mode":"commercial_mode:0x3","line":"line:RTP959240","route":"route:line:RTP959240-3"},"stop_date_times":[{"stop_point":{"name":"RIVOLI - PONT NEUF","coord":{"lat":48.859891,"lon":2.344106},"uri":"stop_point:RTP3764845"},"arrival_date_time":"20130805T173000","departure_date_time":"20130805T173000"},{"stop_point":{"name":"LOUVRE - RIVOLI","coord":{"lat":48.8607,"lon":2.341586},"uri":"stop_point:RTP3764809"},"arrival_date_time":"20130805T173200","departure_date_time":"20130805T173200"},{"stop_point":{"name":"PALAIS ROYAL - MUSEE DU LOUVRE","coord":{"lat":48.862579,"lon":2.336029},"uri":"stop_point:RTP3764846"},"arrival_date_time":"20130805T173400","departure_date_time":"20130805T173400"},{"stop_point":{"name":"PYRAMIDES","coord":{"lat":48.866281,"lon":2.33423},"uri":"stop_point:RTP3764805"},"arrival_date_time":"20130805T173700","departure_date_time":"20130805T173700"},{"stop_point":{"name":"PETITS CHAMPS - DANIELLE CASANOVA","coord":{"lat":48.867854,"lon":2.333604},"uri":"stop_point:RTP3764847"},"arrival_date_time":"20130805T173800","departure_date_time":"20130805T173800"},{"stop_point":{"name":"OPERA - 4 SEPTEMBRE","coord":{"lat":48.869768,"lon":2.332732},"uri":"stop_point:RTP3764803"},"arrival_date_time":"20130805T174000","departure_date_time":"20130805T174000"},{"stop_point":{"name":"OPERA","coord":{"lat":48.871242,"lon":2.331669},"uri":"stop_point:RTP3764801"},"arrival_date_time":"20130805T174100","departure_date_time":"20130805T174100"},{"stop_point":{"name":"AUBER","coord":{"lat":48.872177,"lon":2.329979},"uri":"stop_point:RTP3764799"},"arrival_date_time":"20130805T174200","departure_date_time":"20130805T174200"},{"stop_point":{"name":"HAVRE - HAUSSMANN","coord":{"lat":48.873534,"lon":2.327568},"uri":"stop_point:RTP3764797"},"arrival_date_time":"20130805T174300","departure_date_time":"20130805T174300"}]},{"origin":{"stop_point":{"administrative_regions":[{"level":10,"zip_code":"75009","uri":"admin:2189601","name":"Quartier de la Chaussée-d'Antin"},{"level":8,"zip_code":"75000","uri":"admin:7444","coord":{"lat":48.856505599999757,"lon":2.3521334000000018},"name":"Paris"},{"level":9,"zip_code":"75009","uri":"admin:9537","coord":{"lat":48.876019000000063,"lon":2.33996200000001},"name":"9e Arrondissement"}],"stop_area":{"name":"Saint-Lazare","coord":{"lat":48.875538,"lon":2.325196},"uri":"stop_area:RTP1166840"},"name":"HAVRE - HAUSSMANN","coord":{"lat":48.873534,"lon":2.327568},"uri":"stop_point:RTP3764797"},"name":"HAVRE - HAUSSMANN","uri":"stop_point:RTP3764797"},"destination":{"stop_point":{"administrative_regions":[{"level":10,"zip_code":"75008","uri":"admin:2188826","name":"Quartier de la Madeleine"},{"level":8,"zip_code":"75000","uri":"admin:7444","coord":{"lat":48.856505599999757,"lon":2.3521334000000018},"name":"Paris"},{"level":9,"zip_code":"75008","uri":"admin:20872","coord":{"lat":48.877315800000225,"lon":2.3172611000000072},"name":"8e Arrondissement"}],"stop_area":{"name":"Saint-Lazare","coord":{"lat":48.875538,"lon":2.325196},"uri":"stop_area:RTP1166840"},"name":"HAVRE - HAUSSMANN","coord":{"lat":48.873309,"lon":2.326628},"uri":"stop_point:RTP3716874"},"name":"HAVRE - HAUSSMANN","uri":"stop_point:RTP3716874"},"begin_date_time":"20130805T174300","end_date_time":"20130805T174500","duration":120,"transfer_type":"WALKING","type":"TRANSFER"},{"origin":{"address":{"house_number":30,"administrative_regions":[{"level":10,"zip_code":"75008","uri":"admin:2188826","name":"Quartier de la Madeleine"},{"level":9,"zip_code":"75008","uri":"admin:20872","coord":{"lat":48.877315800000225,"lon":2.3172611000000072},"name":"8e Arrondissement"},{"level":8,"zip_code":"75000","uri":"admin:7444","coord":{"lat":48.856505599999757,"lon":2.3521334000000018},"name":"Paris"}],"uri":"address:66771099","coord":{"lat":48.873248500000237,"lon":2.3268161999999974},"name":"Rue Tronchet"},"name":"30, Rue Tronchet, Quartier de la Madeleine, 8e Arrondissement, Paris","uri":"address:66771099"},"street_network":{"length":341.45388793945312,"coordinates":[{"lat":48.873248500000237,"lon":2.3268161999999974},{"lat":48.873141200000028,"lon":2.3267536000000009},{"lat":48.872792399999952,"lon":2.3264903999999951},{"lat":48.8720709,"lon":2.3259555000000023},{"lat":48.871591799999962,"lon":2.3256110999999957},{"lat":48.870999700000027,"lon":2.325177399999999},{"lat":48.870773300000025,"lon":2.3252011999999995},{"lat":48.870699099999975,"lon":2.3254415999999978},{"lat":48.870664099999793,"lon":2.3255547000000094},{"lat":48.870650908914108,"lon":2.3256278244969018}],"mode":"Walking","path_items":[{"length":277.42352294921875,"name":"Rue Tronchet"},{"length":25.24176025390625,"name":"Rue Tronchet"},{"length":28.572257995605469,"name":"Place de la Madeleine"}]},"destination":{"address":{"house_number":30,"administrative_regions":[{"level":10,"zip_code":"75008","uri":"admin:2188826","name":"Quartier de la Madeleine"},{"level":9,"zip_code":"75008","uri":"admin:20872","coord":{"lat":48.877315800000225,"lon":2.3172611000000072},"name":"8e Arrondissement"},{"level":8,"zip_code":"75000","uri":"admin:7444","coord":{"lat":48.856505599999757,"lon":2.3521334000000018},"name":"Paris"}],"uri":"address:69315573","coord":{"lat":48.870650908914108,"lon":2.3256278244969018},"name":"Place de la Madeleine"},"name":"30, Place de la Madeleine, Quartier de la Madeleine, 8e Arrondissement, Paris","uri":"address:69315573"},"type":"STREET_NETWORK"}]},{"nb_transfers":1,"arrival_date_time":"20130805T174638","departure_date_time":"20130805T172200","requested_date_time":"20130805T172000","duration":960,"sections":[{"origin":{"stop_point":{"administrative_regions":[{"level":10,"zip_code":"75006","uri":"admin:2188184","name":"Quartier de l'Odéon"},{"level":9,"zip_code":"75006","uri":"admin:9527","coord":{"lat":48.8504333,"lon":2.3329506999999947},"name":"6e Arrondissement"},{"level":8,"zip_code":"75000","uri":"admin:7444","coord":{"lat":48.856505599999757,"lon":2.3521334000000018},"name":"Paris"}],"stop_area":{"name":"Odéon","coord":{"lat":48.852315,"lon":2.338862},"uri":"stop_area:RTP1653"},"name":"THEATRE DE L'ODEON","coord":{"lat":48.849691,"lon":2.339107},"uri":"stop_point:RTP3442467"},"name":"THEATRE DE L'ODEON","uri":"stop_point:RTP3442467"},"destination":{"stop_point":{"administrative_regions":[{"level":10,"zip_code":"75006","uri":"admin:2188184","name":"Quartier de l'Odéon"},{"level":9,"zip_code":"75006","uri":"admin:9527","coord":{"lat":48.8504333,"lon":2.3329506999999947},"name":"6e Arrondissement"},{"level":8,"zip_code":"75000","uri":"admin:7444","coord":{"lat":48.856505599999757,"lon":2.3521334000000018},"name":"Paris"},{"level":10,"zip_code":"75006","uri":"admin:2188184","name":"Quartier de l'Odéon"},{"level":9,"zip_code":"75006","uri":"admin:9527","coord":{"lat":48.8504333,"lon":2.3329506999999947},"name":"6e Arrondissement"},{"level":8,"zip_code":"75000","uri":"admin:7444","coord":{"lat":48.856505599999757,"lon":2.3521334000000018},"name":"Paris"},{"level":10,"zip_code":"75006","uri":"admin:2188545","name":"Quartier de la Monnaie"},{"level":9,"zip_code":"75006","uri":"admin:9527","coord":{"lat":48.8504333,"lon":2.3329506999999947},"name":"6e Arrondissement"},{"level":8,"zip_code":"75000","uri":"admin:7444","coord":{"lat":48.856505599999757,"lon":2.3521334000000018},"name":"Paris"},{"level":10,"zip_code":"75006","uri":"admin:2188545","name":"Quartier de la Monnaie"},{"level":9,"zip_code":"75006","uri":"admin:9527","coord":{"lat":48.8504333,"lon":2.3329506999999947},"name":"6e Arrondissement"},{"level":8,"zip_code":"75000","uri":"admin:7444","coord":{"lat":48.856505599999757,"lon":2.3521334000000018},"name":"Paris"}],"stop_area":{"name":"PONT NEUF - QUAI DES GRANDS AUGUSTINS","coord":{"lat":48.856161,"lon":2.339216},"uri":"stop_area:RTP3442419"},"name":"PONT NEUF - QUAI DES GRANDS AUGUSTINS","coord":{"lat":48.855595,"lon":2.340142},"uri":"stop_point:RTP3442420"},"name":"PONT NEUF - QUAI DES GRANDS AUGUSTINS","uri":"stop_point:RTP3442420"},"duration":300,"begin_date_time":"20130805T172200","end_date_time":"20130805T172700","pt_display_informations":{"direction":"PONT NEUF - QUAI DES GRANDS AUGUSTINS","code":"58","network":"RATP","color":"FFFFFF","physical_mode":"Bus","headsign":"Châtelet","commercial_mode":"Bus"},"type":"PUBLIC_TRANSPORT","uris":{"network":"network:RTP","vehicle_journey":"vehicle_journey:RTP8613048370819300417755","physical_mode":"physical_mode:0x3","commercial_mode":"commercial_mode:0x3","line":"line:RTP959324","route":"route:line:RTP959324-3"},"stop_date_times":[{"stop_point":{"name":"THEATRE DE L'ODEON","coord":{"lat":48.849691,"lon":2.339107},"uri":"stop_point:RTP3442467"},"arrival_date_time":"20130805T172200","departure_date_time":"20130805T172200"},{"stop_point":{"name":"SAINT-GERMAIN - ODEON","coord":{"lat":48.851533,"lon":2.338739},"uri":"stop_point:RTP3442423"},"arrival_date_time":"20130805T172300","departure_date_time":"20130805T172300"},{"stop_point":{"name":"SAINT-ANDRE DES ARTS","coord":{"lat":48.853744,"lon":2.338644},"uri":"stop_point:RTP3442468"},"arrival_date_time":"20130805T172500","departure_date_time":"20130805T172500"},{"stop_point":{"name":"PONT NEUF - QUAI DES GRANDS AUGUSTINS","coord":{"lat":48.855595,"lon":2.340142},"uri":"stop_point:RTP3442420"},"arrival_date_time":"20130805T172700","departure_date_time":"20130805T172700"}]},{"origin":{"stop_point":{"administrative_regions":[{"level":10,"zip_code":"75006","uri":"admin:2188545","name":"Quartier de la Monnaie"},{"level":9,"zip_code":"75006","uri":"admin:9527","coord":{"lat":48.8504333,"lon":2.3329506999999947},"name":"6e Arrondissement"},{"level":8,"zip_code":"75000","uri":"admin:7444","coord":{"lat":48.856505599999757,"lon":2.3521334000000018},"name":"Paris"}],"stop_area":{"name":"PONT NEUF - QUAI DES GRANDS AUGUSTINS","coord":{"lat":48.856161,"lon":2.339216},"uri":"stop_area:RTP3442419"},"name":"PONT NEUF - QUAI DES GRANDS AUGUSTINS","coord":{"lat":48.855595,"lon":2.340142},"uri":"stop_point:RTP3442420"},"name":"PONT NEUF - QUAI DES GRANDS AUGUSTINS","uri":"stop_point:RTP3442420"},"destination":{"stop_point":{"administrative_regions":[{"level":10,"zip_code":"75001","uri":"admin:2172737","name":"Quartier Les Halles"},{"level":9,"zip_code":"75001","uri":"admin:20727","coord":{"lat":48.864614399999958,"lon":2.3343959999999986},"name":"1er Arrondissement"},{"level":8,"zip_code":"75000","uri":"admin:7444","coord":{"lat":48.856505599999757,"lon":2.3521334000000018},"name":"Paris"}],"stop_area":{"name":"Pont Neuf","coord":{"lat":48.858534,"lon":2.342117},"uri":"stop_area:RTP1806"},"name":"RIVOLI - PONT NEUF","coord":{"lat":48.859891,"lon":2.344106},"uri":"stop_point:RTP4008417"},"name":"RIVOLI - PONT NEUF","uri":"stop_point:RTP4008417"},"begin_date_time":"20130805T172700","end_date_time":"20130805T173200","duration":300,"transfer_type":"WALKING","type":"TRANSFER"},{"origin":{"stop_point":{"administrative_regions":[{"level":10,"zip_code":"75006","uri":"admin:2188545","name":"Quartier de la Monnaie"},{"level":9,"zip_code":"75006","uri":"admin:9527","coord":{"lat":48.8504333,"lon":2.3329506999999947},"name":"6e Arrondissement"},{"level":8,"zip_code":"75000","uri":"admin:7444","coord":{"lat":48.856505599999757,"lon":2.3521334000000018},"name":"Paris"}],"stop_area":{"name":"PONT NEUF - QUAI DES GRANDS AUGUSTINS","coord":{"lat":48.856161,"lon":2.339216},"uri":"stop_area:RTP3442419"},"name":"PONT NEUF - QUAI DES GRANDS AUGUSTINS","coord":{"lat":48.855595,"lon":2.340142},"uri":"stop_point:RTP3442420"},"name":"PONT NEUF - QUAI DES GRANDS AUGUSTINS","uri":"stop_point:RTP3442420"},"destination":{"stop_point":{"administrative_regions":[{"level":10,"zip_code":"75006","uri":"admin:2188545","name":"Quartier de la Monnaie"},{"level":9,"zip_code":"75006","uri":"admin:9527","coord":{"lat":48.8504333,"lon":2.3329506999999947},"name":"6e Arrondissement"},{"level":8,"zip_code":"75000","uri":"admin:7444","coord":{"lat":48.856505599999757,"lon":2.3521334000000018},"name":"Paris"}],"stop_area":{"name":"PONT NEUF - QUAI DES GRANDS AUGUSTINS","coord":{"lat":48.856161,"lon":2.339216},"uri":"stop_area:RTP3442419"},"name":"PONT NEUF - QUAI DES GRANDS AUGUSTINS","coord":{"lat":48.855595,"lon":2.340142},"uri":"stop_point:RTP3442420"},"name":"PONT NEUF - QUAI DES GRANDS AUGUSTINS","uri":"stop_point:RTP3442420"},"begin_date_time":"20130805T173200","end_date_time":"20130805T173300","duration":60,"type":"WAITING"},{"origin":{"stop_point":{"administrative_regions":[{"level":10,"zip_code":"75001","uri":"admin:2172737","name":"Quartier Les Halles"},{"level":9,"zip_code":"75001","uri":"admin:20727","coord":{"lat":48.864614399999958,"lon":2.3343959999999986},"name":"1er Arrondissement"},{"level":8,"zip_code":"75000","uri":"admin:7444","coord":{"lat":48.856505599999757,"lon":2.3521334000000018},"name":"Paris"}],"stop_area":{"name":"Pont Neuf","coord":{"lat":48.858534,"lon":2.342117},"uri":"stop_area:RTP1806"},"name":"RIVOLI - PONT NEUF","coord":{"lat":48.859891,"lon":2.344106},"uri":"stop_point:RTP4008417"},"name":"RIVOLI - PONT NEUF","uri":"stop_point:RTP4008417"},"destination":{"stop_point":{"administrative_regions":[{"level":10,"zip_code":"75001","uri":"admin:2172737","name":"Quartier Les Halles"},{"level":9,"zip_code":"75001","uri":"admin:20727","coord":{"lat":48.864614399999958,"lon":2.3343959999999986},"name":"1er Arrondissement"},{"level":8,"zip_code":"75000","uri":"admin:7444","coord":{"lat":48.856505599999757,"lon":2.3521334000000018},"name":"Paris"},{"level":10,"zip_code":"75001","uri":"admin:2172737","name":"Quartier Les Halles"},{"level":9,"zip_code":"75001","uri":"admin:20727","coord":{"lat":48.864614399999958,"lon":2.3343959999999986},"name":"1er Arrondissement"},{"level":8,"zip_code":"75000","uri":"admin:7444","coord":{"lat":48.856505599999757,"lon":2.3521334000000018},"name":"Paris"},{"level":9,"zip_code":"75001","uri":"admin:20727","coord":{"lat":48.864614399999958,"lon":2.3343959999999986},"name":"1er Arrondissement"},{"level":8,"zip_code":"75000","uri":"admin:7444","coord":{"lat":48.856505599999757,"lon":2.3521334000000018},"name":"Paris"},{"level":10,"zip_code":"75001","uri":"admin:2172739","name":"Quartier du Palais Royal"},{"level":9,"zip_code":"75001","uri":"admin:20727","coord":{"lat":48.864614399999958,"lon":2.3343959999999986},"name":"1er Arrondissement"},{"level":8,"zip_code":"75000","uri":"admin:7444","coord":{"lat":48.856505599999757,"lon":2.3521334000000018},"name":"Paris"},{"level":10,"zip_code":"75001","uri":"admin:2172739","name":"Quartier du Palais Royal"},{"level":10,"zip_code":"75001","uri":"admin:2172743","name":"Quartier Vendôme"},{"level":9,"zip_code":"75001","uri":"admin:20727","coord":{"lat":48.864614399999958,"lon":2.3343959999999986},"name":"1er Arrondissement"},{"level":8,"zip_code":"75000","uri":"admin:7444","coord":{"lat":48.856505599999757,"lon":2.3521334000000018},"name":"Paris"}],"stop_area":{"name":"CASTIGLIONE","coord":{"lat":48.865517,"lon":2.326942},"uri":"stop_area:RTP4008421"},"name":"CASTIGLIONE","coord":{"lat":48.865517,"lon":2.326942},"uri":"stop_point:RTP4008421"},"name":"CASTIGLIONE","uri":"stop_point:RTP4008421"},"duration":300,"begin_date_time":"20130805T173300","end_date_time":"20130805T173800","pt_display_informations":{"direction":"CASTIGLIONE","code":"72","network":"RATP","color":"FFFFFF","physical_mode":"Bus","headsign":"PARC DE SAINT-CLOUD","commercial_mode":"Bus"},"type":"PUBLIC_TRANSPORT","uris":{"network":"network:RTP","vehicle_journey":"vehicle_journey:RTP5713864800938106457141","physical_mode":"physical_mode:0x3","commercial_mode":"commercial_mode:0x3","line":"line:RTP959888","route":"route:line:RTP959888-1"},"stop_date_times":[{"stop_point":{"name":"RIVOLI - PONT NEUF","coord":{"lat":48.859891,"lon":2.344106},"uri":"stop_point:RTP4008417"},"arrival_date_time":"20130805T173300","departure_date_time":"20130805T173300"},{"stop_point":{"name":"LOUVRE - RIVOLI","coord":{"lat":48.860817,"lon":2.341259},"uri":"stop_point:RTP4008418"},"arrival_date_time":"20130805T173500","departure_date_time":"20130805T173500"},{"stop_point":{"name":"PALAIS ROYAL - MUSEE DU LOUVRE","coord":{"lat":48.862579,"lon":2.336029},"uri":"stop_point:RTP4008419"},"arrival_date_time":"20130805T173600","departure_date_time":"20130805T173600"},{"stop_point":{"name":"PYRAMIDES - TUILERIES","coord":{"lat":48.864034,"lon":2.331588},"uri":"stop_point:RTP4008420"},"arrival_date_time":"20130805T173700","departure_date_time":"20130805T173700"},{"stop_point":{"name":"CASTIGLIONE","coord":{"lat":48.865517,"lon":2.326942},"uri":"stop_point:RTP4008421"},"arrival_date_time":"20130805T173800","departure_date_time":"20130805T173800"}]},{"origin":{"address":{"house_number":1,"administrative_regions":[{"level":10,"zip_code":"75001","uri":"admin:2172743","name":"Quartier Vendôme"},{"level":9,"zip_code":"75001","uri":"admin:20727","coord":{"lat":48.864614399999958,"lon":2.3343959999999986},"name":"1er Arrondissement"},{"level":8,"zip_code":"75000","uri":"admin:7444","coord":{"lat":48.856505599999757,"lon":2.3521334000000018},"name":"Paris"}],"uri":"address:173278852","coord":{"lat":48.8657811,"lon":2.3260515000000126},"name":"Rue Rouget de Lisle"},"name":"1, Rue Rouget de Lisle, Quartier Vendôme, 1er Arrondissement, Paris","uri":"address:173278852"},"street_network":{"length":716.07958984375,"coordinates":[{"lat":48.8657811,"lon":2.3260515000000126},{"lat":48.866388000000008,"lon":2.3265059000000008},{"lat":48.866686300000012,"lon":2.3255710000000005},{"lat":48.867439800000014,"lon":2.3261888000000006},{"lat":48.867546200000014,"lon":2.3258350000000005},{"lat":48.86822269999999,"lon":2.3256152999999933},{"lat":48.869012900000016,"lon":2.3253207000000007},{"lat":48.869395600000018,"lon":2.3251709000000007},{"lat":48.869505500000017,"lon":2.3251285000000008},{"lat":48.86968939999992,"lon":2.3250559000000011},{"lat":48.870664099999793,"lon":2.3255547000000094},{"lat":48.870650908914108,"lon":2.3256278244969018}],"mode":"Walking","path_items":[{"length":75.24664306640625,"name":"Rue Rouget de Lisle"},{"length":76.025222778320312,"name":"Rue du Mont Thabor"},{"length":95.247421264648438,"name":"Rue Cambon"},{"length":28.462739944458008,"name":"Rue Saint-Honoré"},{"length":167.65031433105469,"name":"Rue Duphot"},{"length":43.95458984375,"name":""},{"length":33.744239807128906,"name":"Rue Duphot"},{"length":118.19300079345703,"name":"Place de la Madeleine"}]},"destination":{"address":{"house_number":24,"administrative_regions":[{"level":10,"zip_code":"75008","uri":"admin:2188826","name":"Quartier de la Madeleine"},{"level":9,"zip_code":"75008","uri":"admin:20872","coord":{"lat":48.877315800000225,"lon":2.3172611000000072},"name":"8e Arrondissement"},{"level":8,"zip_code":"75000","uri":"admin:7444","coord":{"lat":48.856505599999757,"lon":2.3521334000000018},"name":"Paris"}],"uri":"address:4018038","coord":{"lat":48.870650908914108,"lon":2.3256278244969018},"name":"Place de la Madeleine"},"name":"24, Place de la Madeleine, Quartier de la Madeleine, 8e Arrondissement, Paris","uri":"address:4018038"},"type":"STREET_NETWORK"}]},{"nb_transfers":1,"arrival_date_time":"20130805T175255","departure_date_time":"20130805T172800","requested_date_time":"20130805T172000","duration":960,"sections":[{"origin":{"stop_point":{"administrative_regions":[{"level":10,"zip_code":"75006","uri":"admin:2188184","name":"Quartier de l'Odéon"},{"level":9,"zip_code":"75006","uri":"admin:9527","coord":{"lat":48.8504333,"lon":2.3329506999999947},"name":"6e Arrondissement"},{"level":8,"zip_code":"75000","uri":"admin:7444","coord":{"lat":48.856505599999757,"lon":2.3521334000000018},"name":"Paris"}],"stop_area":{"name":"Odéon","coord":{"lat":48.852315,"lon":2.338862},"uri":"stop_area:RTP1653"},"name":"THEATRE DE L'ODEON","coord":{"lat":48.849691,"lon":2.339107},"uri":"stop_point:RTP3442467"},"name":"THEATRE DE L'ODEON","uri":"stop_point:RTP3442467"},"destination":{"stop_point":{"administrative_regions":[{"level":10,"zip_code":"75006","uri":"admin:2188184","name":"Quartier de l'Odéon"},{"level":9,"zip_code":"75006","uri":"admin:9527","coord":{"lat":48.8504333,"lon":2.3329506999999947},"name":"6e Arrondissement"},{"level":8,"zip_code":"75000","uri":"admin:7444","coord":{"lat":48.856505599999757,"lon":2.3521334000000018},"name":"Paris"},{"level":10,"zip_code":"75006","uri":"admin:2188184","name":"Quartier de l'Odéon"},{"level":9,"zip_code":"75006","uri":"admin:9527","coord":{"lat":48.8504333,"lon":2.3329506999999947},"name":"6e Arrondissement"},{"level":8,"zip_code":"75000","uri":"admin:7444","coord":{"lat":48.856505599999757,"lon":2.3521334000000018},"name":"Paris"},{"level":10,"zip_code":"75006","uri":"admin:2188545","name":"Quartier de la Monnaie"},{"level":9,"zip_code":"75006","uri":"admin:9527","coord":{"lat":48.8504333,"lon":2.3329506999999947},"name":"6e Arrondissement"},{"level":8,"zip_code":"75000","uri":"admin:7444","coord":{"lat":48.856505599999757,"lon":2.3521334000000018},"name":"Paris"},{"level":10,"zip_code":"75006","uri":"admin:2188545","name":"Quartier de la Monnaie"},{"level":9,"zip_code":"75006","uri":"admin:9527","coord":{"lat":48.8504333,"lon":2.3329506999999947},"name":"6e Arrondissement"},{"level":8,"zip_code":"75000","uri":"admin:7444","coord":{"lat":48.856505599999757,"lon":2.3521334000000018},"name":"Paris"},{"level":10,"zip_code":"75001","uri":"admin:2172740","name":"Quartier Saint-Germain-l'Auxerrois"},{"level":9,"zip_code":"75001","uri":"admin:20727","coord":{"lat":48.864614399999958,"lon":2.3343959999999986},"name":"1er Arrondissement"},{"level":8,"zip_code":"75000","uri":"admin:7444","coord":{"lat":48.856505599999757,"lon":2.3521334000000018},"name":"Paris"}],"stop_area":{"name":"Pont Neuf","coord":{"lat":48.858534,"lon":2.342117},"uri":"stop_area:RTP1806"},"name":"PONT NEUF - QUAI DU LOUVRE","coord":{"lat":48.858148,"lon":2.342798},"uri":"stop_point:RTP3442418"},"name":"PONT NEUF - QUAI DU LOUVRE","uri":"stop_point:RTP3442418"},"duration":360,"begin_date_time":"20130805T172800","end_date_time":"20130805T173400","pt_display_informations":{"direction":"PONT NEUF - QUAI DU LOUVRE","code":"58","network":"RATP","color":"FFFFFF","physical_mode":"Bus","headsign":"Châtelet","commercial_mode":"Bus"},"type":"PUBLIC_TRANSPORT","uris":{"network":"network:RTP","vehicle_journey":"vehicle_journey:RTP8713048370819300418000","physical_mode":"physical_mode:0x3","commercial_mode":"commercial_mode:0x3","line":"line:RTP959324","route":"route:line:RTP959324-3"},"stop_date_times":[{"stop_point":{"name":"THEATRE DE L'ODEON","coord":{"lat":48.849691,"lon":2.339107},"uri":"stop_point:RTP3442467"},"arrival_date_time":"20130805T172800","departure_date_time":"20130805T172800"},{"stop_point":{"name":"SAINT-GERMAIN - ODEON","coord":{"lat":48.851533,"lon":2.338739},"uri":"stop_point:RTP3442423"},"arrival_date_time":"20130805T172900","departure_date_time":"20130805T172900"},{"stop_point":{"name":"SAINT-ANDRE DES ARTS","coord":{"lat":48.853744,"lon":2.338644},"uri":"stop_point:RTP3442468"},"arrival_date_time":"20130805T173100","departure_date_time":"20130805T173100"},{"stop_point":{"name":"PONT NEUF - QUAI DES GRANDS AUGUSTINS","coord":{"lat":48.855595,"lon":2.340142},"uri":"stop_point:RTP3442420"},"arrival_date_time":"20130805T173300","departure_date_time":"20130805T173300"},{"stop_point":{"name":"PONT NEUF - QUAI DU LOUVRE","coord":{"lat":48.858148,"lon":2.342798},"uri":"stop_point:RTP3442418"},"arrival_date_time":"20130805T173400","departure_date_time":"20130805T173400"}]},{"origin":{"stop_point":{"administrative_regions":[{"level":10,"zip_code":"75001","uri":"admin:2172740","name":"Quartier Saint-Germain-l'Auxerrois"},{"level":9,"zip_code":"75001","uri":"admin:20727","coord":{"lat":48.864614399999958,"lon":2.3343959999999986},"name":"1er Arrondissement"},{"level":8,"zip_code":"75000","uri":"admin:7444","coord":{"lat":48.856505599999757,"lon":2.3521334000000018},"name":"Paris"}],"stop_area":{"name":"Pont Neuf","coord":{"lat":48.858534,"lon":2.342117},"uri":"stop_area:RTP1806"},"name":"PONT NEUF - QUAI DU LOUVRE","coord":{"lat":48.858148,"lon":2.342798},"uri":"stop_point:RTP3442418"},"name":"PONT NEUF - QUAI DU LOUVRE","uri":"stop_point:RTP3442418"},"destination":{"stop_point":{"administrative_regions":[{"level":10,"zip_code":"75001","uri":"admin:2172737","name":"Quartier Les Halles"},{"level":9,"zip_code":"75001","uri":"admin:20727","coord":{"lat":48.864614399999958,"lon":2.3343959999999986},"name":"1er Arrondissement"},{"level":8,"zip_code":"75000","uri":"admin:7444","coord":{"lat":48.856505599999757,"lon":2.3521334000000018},"name":"Paris"}],"stop_area":{"name":"Pont Neuf","coord":{"lat":48.858534,"lon":2.342117},"uri":"stop_area:RTP1806"},"name":"RIVOLI - PONT NEUF","coord":{"lat":48.859891,"lon":2.344106},"uri":"stop_point:RTP3764845"},"name":"RIVOLI - PONT NEUF","uri":"stop_point:RTP3764845"},"begin_date_time":"20130805T173400","end_date_time":"20130805T173600","duration":120,"transfer_type":"WALKING","type":"TRANSFER"},{"origin":{"stop_point":{"administrative_regions":[{"level":10,"zip_code":"75001","uri":"admin:2172740","name":"Quartier Saint-Germain-l'Auxerrois"},{"level":9,"zip_code":"75001","uri":"admin:20727","coord":{"lat":48.864614399999958,"lon":2.3343959999999986},"name":"1er Arrondissement"},{"level":8,"zip_code":"75000","uri":"admin:7444","coord":{"lat":48.856505599999757,"lon":2.3521334000000018},"name":"Paris"}],"stop_area":{"name":"Pont Neuf","coord":{"lat":48.858534,"lon":2.342117},"uri":"stop_area:RTP1806"},"name":"PONT NEUF - QUAI DU LOUVRE","coord":{"lat":48.858148,"lon":2.342798},"uri":"stop_point:RTP3442418"},"name":"PONT NEUF - QUAI DU LOUVRE","uri":"stop_point:RTP3442418"},"destination":{"stop_point":{"administrative_regions":[{"level":10,"zip_code":"75001","uri":"admin:2172740","name":"Quartier Saint-Germain-l'Auxerrois"},{"level":9,"zip_code":"75001","uri":"admin:20727","coord":{"lat":48.864614399999958,"lon":2.3343959999999986},"name":"1er Arrondissement"},{"level":8,"zip_code":"75000","uri":"admin:7444","coord":{"lat":48.856505599999757,"lon":2.3521334000000018},"name":"Paris"}],"stop_area":{"name":"Pont Neuf","coord":{"lat":48.858534,"lon":2.342117},"uri":"stop_area:RTP1806"},"name":"PONT NEUF - QUAI DU LOUVRE","coord":{"lat":48.858148,"lon":2.342798},"uri":"stop_point:RTP3442418"},"name":"PONT NEUF - QUAI DU LOUVRE","uri":"stop_point:RTP3442418"},"begin_date_time":"20130805T173600","end_date_time":"20130805T173600","duration":0,"type":"WAITING"},{"origin":{"stop_point":{"administrative_regions":[{"level":10,"zip_code":"75001","uri":"admin:2172737","name":"Quartier Les Halles"},{"level":9,"zip_code":"75001","uri":"admin:20727","coord":{"lat":48.864614399999958,"lon":2.3343959999999986},"name":"1er Arrondissement"},{"level":8,"zip_code":"75000","uri":"admin:7444","coord":{"lat":48.856505599999757,"lon":2.3521334000000018},"name":"Paris"}],"stop_area":{"name":"Pont Neuf","coord":{"lat":48.858534,"lon":2.342117},"uri":"stop_area:RTP1806"},"name":"RIVOLI - PONT NEUF","coord":{"lat":48.859891,"lon":2.344106},"uri":"stop_point:RTP3764845"},"name":"RIVOLI - PONT NEUF","uri":"stop_point:RTP3764845"},"destination":{"stop_point":{"administrative_regions":[{"level":10,"zip_code":"75001","uri":"admin:2172737","name":"Quartier Les Halles"},{"level":9,"zip_code":"75001","uri":"admin:20727","coord":{"lat":48.864614399999958,"lon":2.3343959999999986},"name":"1er Arrondissement"},{"level":8,"zip_code":"75000","uri":"admin:7444","coord":{"lat":48.856505599999757,"lon":2.3521334000000018},"name":"Paris"},{"level":10,"zip_code":"75001","uri":"admin:2172737","name":"Quartier Les Halles"},{"level":9,"zip_code":"75001","uri":"admin:20727","coord":{"lat":48.864614399999958,"lon":2.3343959999999986},"name":"1er Arrondissement"},{"level":8,"zip_code":"75000","uri":"admin:7444","coord":{"lat":48.856505599999757,"lon":2.3521334000000018},"name":"Paris"},{"level":9,"zip_code":"75001","uri":"admin:20727","coord":{"lat":48.864614399999958,"lon":2.3343959999999986},"name":"1er Arrondissement"},{"level":8,"zip_code":"75000","uri":"admin:7444","coord":{"lat":48.856505599999757,"lon":2.3521334000000018},"name":"Paris"},{"level":10,"zip_code":"75001","uri":"admin:2172739","name":"Quartier du Palais Royal"},{"level":9,"zip_code":"75001","uri":"admin:20727","coord":{"lat":48.864614399999958,"lon":2.3343959999999986},"name":"1er Arrondissement"},{"level":8,"zip_code":"75000","uri":"admin:7444","coord":{"lat":48.856505599999757,"lon":2.3521334000000018},"name":"Paris"},{"level":10,"zip_code":"75001","uri":"admin:2172739","name":"Quartier du Palais Royal"},{"level":10,"zip_code":"75002","uri":"admin:2189366","name":"Quartier Gaillon"},{"level":9,"zip_code":"75002","uri":"admin:9542","coord":{"lat":48.868743000000066,"lon":2.34168800000001},"name":"2e Arrondissement"},{"level":8,"zip_code":"75000","uri":"admin:7444","coord":{"lat":48.856505599999757,"lon":2.3521334000000018},"name":"Paris"}],"stop_area":{"name":"PETITS CHAMPS - DANIELLE CASANOVA","coord":{"lat":48.867854,"lon":2.333604},"uri":"stop_area:RTP3705293"},"name":"PETITS CHAMPS - DANIELLE CASANOVA","coord":{"lat":48.867854,"lon":2.333604},"uri":"stop_point:RTP3764847"},"name":"PETITS CHAMPS - DANIELLE CASANOVA","uri":"stop_point:RTP3764847"},"duration":480,"begin_date_time":"20130805T173600","end_date_time":"20130805T174400","pt_display_informations":{"direction":"PETITS CHAMPS - DANIELLE CASANOVA","code":"21","network":"RATP","color":"FFFFFF","physical_mode":"Bus","headsign":"Saint-Lazare","commercial_mode":"Bus"},"type":"PUBLIC_TRANSPORT","uris":{"network":"network:RTP","vehicle_journey":"vehicle_journey:RTP11613889720883328241377","physical_mode":"physical_mode:0x3","commercial_mode":"commercial_mode:0x3","line":"line:RTP959240","route":"route:line:RTP959240-3"},"stop_date_times":[{"stop_point":{"name":"RIVOLI - PONT NEUF","coord":{"lat":48.859891,"lon":2.344106},"uri":"stop_point:RTP3764845"},"arrival_date_time":"20130805T173600","departure_date_time":"20130805T173600"},{"stop_point":{"name":"LOUVRE - RIVOLI","coord":{"lat":48.8607,"lon":2.341586},"uri":"stop_point:RTP3764809"},"arrival_date_time":"20130805T173800","departure_date_time":"20130805T173800"},{"stop_point":{"name":"PALAIS ROYAL - MUSEE DU LOUVRE","coord":{"lat":48.862579,"lon":2.336029},"uri":"stop_point:RTP3764846"},"arrival_date_time":"20130805T174000","departure_date_time":"20130805T174000"},{"stop_point":{"name":"PYRAMIDES","coord":{"lat":48.866281,"lon":2.33423},"uri":"stop_point:RTP3764805"},"arrival_date_time":"20130805T174300","departure_date_time":"20130805T174300"},{"stop_point":{"name":"PETITS CHAMPS - DANIELLE CASANOVA","coord":{"lat":48.867854,"lon":2.333604},"uri":"stop_point:RTP3764847"},"arrival_date_time":"20130805T174400","departure_date_time":"20130805T174400"}]},{"origin":{"address":{"house_number":33,"administrative_regions":[{"level":10,"zip_code":"75002","uri":"admin:2189366","name":"Quartier Gaillon"},{"level":9,"zip_code":"75002","uri":"admin:9542","coord":{"lat":48.868743000000066,"lon":2.34168800000001},"name":"2e Arrondissement"},{"level":8,"zip_code":"75000","uri":"admin:7444","coord":{"lat":48.856505599999757,"lon":2.3521334000000018},"name":"Paris"}],"uri":"address:4018042","coord":{"lat":48.8677459,"lon":2.3335525000000015},"name":"Avenue de l'Opéra"},"name":"33, Avenue de l'Opéra, Quartier Gaillon, 2e Arrondissement, Paris","uri":"address:4018042"},"street_network":{"length":739.53143310546875,"coordinates":[{"lat":48.8677459,"lon":2.3335525000000015},{"lat":48.867509099999708,"lon":2.3336717000000124},{"lat":48.86782589999973,"lon":2.3322972000000108},{"lat":48.867955899999728,"lon":2.331726700000011},{"lat":48.868353599999736,"lon":2.3303077000000112},{"lat":48.868903499999739,"lon":2.3294185000000112},{"lat":48.869821000000258,"lon":2.3281396000000081},{"lat":48.869929000000035,"lon":2.327989100000007},{"lat":48.8703724999999,"lon":2.3267062999999966},{"lat":48.870567500000028,"lon":2.3260902000000008},{"lat":48.870650908914108,"lon":2.3256278244969018}],"mode":"Walking","path_items":[{"length":27.744741439819336,"name":"Avenue de l'Opéra"},{"length":264.50094604492188,"name":"Rue Danielle Casanova"},{"length":228.18157958984375,"name":"Rue des Capucines"},{"length":16.295289993286133,"name":"Rue des Capucines"},{"length":156.04629516601563,"name":"Rue de Sèze"}]},"destination":{"address":{"house_number":28,"administrative_regions":[{"level":10,"zip_code":"75009","uri":"admin:2189601","name":"Quartier de la Chaussée-d'Antin"},{"level":9,"zip_code":"75009","uri":"admin:9537","coord":{"lat":48.876019000000063,"lon":2.33996200000001},"name":"9e Arrondissement"},{"level":8,"zip_code":"75000","uri":"admin:7444","coord":{"lat":48.856505599999757,"lon":2.3521334000000018},"name":"Paris"}],"uri":"address:4651926","coord":{"lat":48.870650908914108,"lon":2.3256278244969018},"name":"Rue de Sèze"},"name":"28, Rue de Sèze, Quartier de la Chaussée-d'Antin, 9e Arrondissement, Paris","uri":"address:4651926"},"type":"STREET_NETWORK"}]},{"nb_transfers":0,"arrival_date_time":"20130805T175255","departure_date_time":"20130805T172258","requested_date_time":"20130805T172000","duration":1262,"sections":[{"street_network":{"length":334.7686767578125,"coordinates":[{"lat":48.849466712282833,"lon":2.3390305494790109},{"lat":48.849794999999816,"lon":2.3390268000000103},{"lat":48.849944799999811,"lon":2.3399882000000107},{"lat":48.850308000000012,"lon":2.3426503000000003}],"mode":"Walking","path_items":[{"length":272.03512573242188,"name":"Rue Racine"}]},"type":"STREET_NETWORK"},{"origin":{"stop_point":{"administrative_regions":[{"level":10,"zip_code":"75005","uri":"admin:2188166","name":"Quartier de la Sorbonne"},{"level":9,"zip_code":"75005","uri":"admin:20873","coord":{"lat":48.846059099999991,"lon":2.3445228000000005},"name":"5e Arrondissement"},{"level":8,"zip_code":"75000","uri":"admin:7444","coord":{"lat":48.856505599999757,"lon":2.3521334000000018},"name":"Paris"}],"stop_area":{"name":"LES ECOLES","coord":{"lat":48.849789,"lon":2.342103},"uri":"stop_area:RTP3764620"},"name":"LES ECOLES","coord":{"lat":48.850068,"lon":2.342552},"uri":"stop_point:RTP3764842"},"name":"LES ECOLES","uri":"stop_point:RTP3764842"},"destination":{"stop_point":{"administrative_regions":[{"level":10,"zip_code":"75005","uri":"admin:2188166","name":"Quartier de la Sorbonne"},{"level":9,"zip_code":"75005","uri":"admin:20873","coord":{"lat":48.846059099999991,"lon":2.3445228000000005},"name":"5e Arrondissement"},{"level":8,"zip_code":"75000","uri":"admin:7444","coord":{"lat":48.856505599999757,"lon":2.3521334000000018},"name":"Paris"},{"level":10,"zip_code":"75005","uri":"admin:2188166","name":"Quartier de la Sorbonne"},{"level":9,"zip_code":"75005","uri":"admin:20873","coord":{"lat":48.846059099999991,"lon":2.3445228000000005},"name":"5e Arrondissement"},{"level":8,"zip_code":"75000","uri":"admin:7444","coord":{"lat":48.856505599999757,"lon":2.3521334000000018},"name":"Paris"},{"level":10,"zip_code":"75004","uri":"admin:2172738","name":"Quartier Les Îles"},{"level":9,"zip_code":"75004","uri":"admin:9597","coord":{"lat":48.856202100000061,"lon":2.35561930000001},"name":"4e Arrondissement"},{"level":8,"zip_code":"75000","uri":"admin:7444","coord":{"lat":48.856505599999757,"lon":2.3521334000000018},"name":"Paris"},{"level":10,"zip_code":"75001","uri":"admin:2172737","name":"Quartier Les Halles"},{"level":9,"zip_code":"75001","uri":"admin:20727","coord":{"lat":48.864614399999958,"lon":2.3343959999999986},"name":"1er Arrondissement"},{"level":8,"zip_code":"75000","uri":"admin:7444","coord":{"lat":48.856505599999757,"lon":2.3521334000000018},"name":"Paris"},{"level":10,"zip_code":"75001","uri":"admin:2172737","name":"Quartier Les Halles"},{"level":9,"zip_code":"75001","uri":"admin:20727","coord":{"lat":48.864614399999958,"lon":2.3343959999999986},"name":"1er Arrondissement"},{"level":8,"zip_code":"75000","uri":"admin:7444","coord":{"lat":48.856505599999757,"lon":2.3521334000000018},"name":"Paris"},{"level":10,"zip_code":"75001","uri":"admin:2172737","name":"Quartier Les Halles"},{"level":9,"zip_code":"75001","uri":"admin:20727","coord":{"lat":48.864614399999958,"lon":2.3343959999999986},"name":"1er Arrondissement"},{"level":8,"zip_code":"75000","uri":"admin:7444","coord":{"lat":48.856505599999757,"lon":2.3521334000000018},"name":"Paris"},{"level":9,"zip_code":"75001","uri":"admin:20727","coord":{"lat":48.864614399999958,"lon":2.3343959999999986},"name":"1er Arrondissement"},{"level":8,"zip_code":"75000","uri":"admin:7444","coord":{"lat":48.856505599999757,"lon":2.3521334000000018},"name":"Paris"},{"level":10,"zip_code":"75001","uri":"admin:2172739","name":"Quartier du Palais Royal"},{"level":9,"zip_code":"75001","uri":"admin:20727","coord":{"lat":48.864614399999958,"lon":2.3343959999999986},"name":"1er Arrondissement"},{"level":8,"zip_code":"75000","uri":"admin:7444","coord":{"lat":48.856505599999757,"lon":2.3521334000000018},"name":"Paris"},{"level":10,"zip_code":"75001","uri":"admin:2172739","name":"Quartier du Palais Royal"},{"level":10,"zip_code":"75002","uri":"admin:2189366","name":"Quartier Gaillon"},{"level":9,"zip_code":"75002","uri":"admin:9542","coord":{"lat":48.868743000000066,"lon":2.34168800000001},"name":"2e Arrondissement"},{"level":8,"zip_code":"75000","uri":"admin:7444","coord":{"lat":48.856505599999757,"lon":2.3521334000000018},"name":"Paris"}],"stop_area":{"name":"PETITS CHAMPS - DANIELLE CASANOVA","coord":{"lat":48.867854,"lon":2.333604},"uri":"stop_area:RTP3705293"},"name":"PETITS CHAMPS - DANIELLE CASANOVA","coord":{"lat":48.867854,"lon":2.333604},"uri":"stop_point:RTP3764847"},"name":"PETITS CHAMPS - DANIELLE CASANOVA","uri":"stop_point:RTP3764847"},"duration":1020,"begin_date_time":"20130805T172700","end_date_time":"20130805T174400","pt_display_informations":{"direction":"PETITS CHAMPS - DANIELLE CASANOVA","code":"21","network":"RATP","color":"FFFFFF","physical_mode":"Bus","headsign":"Saint-Lazare","commercial_mode":"Bus"},"type":"PUBLIC_TRANSPORT","uris":{"network":"network:RTP","vehicle_journey":"vehicle_journey:RTP11613889720883328241377","physical_mode":"physical_mode:0x3","commercial_mode":"commercial_mode:0x3","line":"line:RTP959240","route":"route:line:RTP959240-3"},"stop_date_times":[{"stop_point":{"name":"LES ECOLES","coord":{"lat":48.850068,"lon":2.342552},"uri":"stop_point:RTP3764842"},"arrival_date_time":"20130805T172700","departure_date_time":"20130805T172700"},{"stop_point":{"name":"SAINT-MICHEL - SAINT-GERMAIN","coord":{"lat":48.852351,"lon":2.343833},"uri":"stop_point:RTP3764843"},"arrival_date_time":"20130805T172900","departure_date_time":"20130805T172900"},{"stop_point":{"name":"CITE - PALAIS DE JUSTICE","coord":{"lat":48.855343,"lon":2.346108},"uri":"stop_point:RTP3764844"},"arrival_date_time":"20130805T173100","departure_date_time":"20130805T173100"},{"stop_point":{"name":"CHATELET","coord":{"lat":48.85901,"lon":2.346939},"uri":"stop_point:RTP3764812"},"arrival_date_time":"20130805T173400","departure_date_time":"20130805T173400"},{"stop_point":{"name":"RIVOLI - PONT NEUF","coord":{"lat":48.859891,"lon":2.344106},"uri":"stop_point:RTP3764845"},"arrival_date_time":"20130805T173600","departure_date_time":"20130805T173600"},{"stop_point":{"name":"LOUVRE - RIVOLI","coord":{"lat":48.8607,"lon":2.341586},"uri":"stop_point:RTP3764809"},"arrival_date_time":"20130805T173800","departure_date_time":"20130805T173800"},{"stop_point":{"name":"PALAIS ROYAL - MUSEE DU LOUVRE","coord":{"lat":48.862579,"lon":2.336029},"uri":"stop_point:RTP3764846"},"arrival_date_time":"20130805T174000","departure_date_time":"20130805T174000"},{"stop_point":{"name":"PYRAMIDES","coord":{"lat":48.866281,"lon":2.33423},"uri":"stop_point:RTP3764805"},"arrival_date_time":"20130805T174300","departure_date_time":"20130805T174300"},{"stop_point":{"name":"PETITS CHAMPS - DANIELLE CASANOVA","coord":{"lat":48.867854,"lon":2.333604},"uri":"stop_point:RTP3764847"},"arrival_date_time":"20130805T174400","departure_date_time":"20130805T174400"}]},{"origin":{"address":{"house_number":33,"administrative_regions":[{"level":10,"zip_code":"75002","uri":"admin:2189366","name":"Quartier Gaillon"},{"level":9,"zip_code":"75002","uri":"admin:9542","coord":{"lat":48.868743000000066,"lon":2.34168800000001},"name":"2e Arrondissement"},{"level":8,"zip_code":"75000","uri":"admin:7444","coord":{"lat":48.856505599999757,"lon":2.3521334000000018},"name":"Paris"}],"uri":"address:4018042","coord":{"lat":48.8677459,"lon":2.3335525000000015},"name":"Avenue de l'Opéra"},"name":"33, Avenue de l'Opéra, Quartier Gaillon, 2e Arrondissement, Paris","uri":"address:4018042"},"street_network":{"length":739.53143310546875,"coordinates":[{"lat":48.8677459,"lon":2.3335525000000015},{"lat":48.867509099999708,"lon":2.3336717000000124},{"lat":48.86782589999973,"lon":2.3322972000000108},{"lat":48.867955899999728,"lon":2.331726700000011},{"lat":48.868353599999736,"lon":2.3303077000000112},{"lat":48.868903499999739,"lon":2.3294185000000112},{"lat":48.869821000000258,"lon":2.3281396000000081},{"lat":48.869929000000035,"lon":2.327989100000007},{"lat":48.8703724999999,"lon":2.3267062999999966},{"lat":48.870567500000028,"lon":2.3260902000000008},{"lat":48.870650908914108,"lon":2.3256278244969018}],"mode":"Walking","path_items":[{"length":27.744741439819336,"name":"Avenue de l'Opéra"},{"length":264.50094604492188,"name":"Rue Danielle Casanova"},{"length":228.18157958984375,"name":"Rue des Capucines"},{"length":16.295289993286133,"name":"Rue des Capucines"},{"length":156.04629516601563,"name":"Rue de Sèze"}]},"destination":{"address":{"house_number":28,"administrative_regions":[{"level":10,"zip_code":"75009","uri":"admin:2189601","name":"Quartier de la Chaussée-d'Antin"},{"level":9,"zip_code":"75009","uri":"admin:9537","coord":{"lat":48.876019000000063,"lon":2.33996200000001},"name":"9e Arrondissement"},{"level":8,"zip_code":"75000","uri":"admin:7444","coord":{"lat":48.856505599999757,"lon":2.3521334000000018},"name":"Paris"}],"uri":"address:4651926","coord":{"lat":48.870650908914108,"lon":2.3256278244969018},"name":"Rue de Sèze"},"name":"28, Rue de Sèze, Quartier de la Chaussée-d'Antin, 9e Arrondissement, Paris","uri":"address:4651926"},"type":"STREET_NETWORK"}]}]}}